[
  {
    "company": "Atlassian",
    "industry": "Enterprise Software",
    "headcount": 500,
    "date": "2026-04-01",
    "hq": {
      "city": "Sydney",
      "country": "Australia",
      "lat": -33.8688,
      "lng": 151.2093
    },
    "impacts": [
      {
        "city": "Sydney",
        "country": "Australia",
        "lat": -33.8688,
        "lng": 151.2093,
        "count": 500
      }
    ],
    "reason": "Macroeconomic restructuring"
  },
  {
    "company": "Oracle",
    "industry": "Technology",
    "headcount": 30000,
    "date": "2026-03-31",
    "hq": {
      "city": "Austin",
      "country": "USA",
      "lat": 30.2672,
      "lng": -97.7431
    },
    "impacts": [
      {
        "city": "Austin",
        "country": "USA",
        "lat": 30.2672,
        "lng": -97.7431,
        "count": 30000
      }
    ],
    "reason": "AI Infrastructure shift"
  },
  {
    "company": "Infosys",
    "industry": "IT Services",
    "headcount": 8000,
    "date": "2026-03-20",
    "hq": {
      "city": "Bangalore",
      "country": "India",
      "lat": 12.9716,
      "lng": 77.5946
    },
    "impacts": [
      {
        "city": "Bangalore",
        "country": "India",
        "lat": 12.9716,
        "lng": 77.5946,
        "count": 8000
      }
    ],
    "reason": "Macroeconomic restructuring"
  },
  {
    "company": "Cisco",
    "industry": "Networking",
    "headcount": 5500,
    "date": "2026-03-15",
    "hq": {
      "city": "San Jose",
      "country": "USA",
      "lat": 37.3382,
      "lng": -121.8863
    },
    "impacts": [
      {
        "city": "San Jose",
        "country": "USA",
        "lat": 37.3382,
        "lng": -121.8863,
        "count": 5500
      }
    ],
    "reason": "Macroeconomic restructuring"
  },
  {
    "company": "TCS",
    "industry": "IT Services",
    "headcount": 10000,
    "date": "2026-03-10",
    "hq": {
      "city": "Mumbai",
      "country": "India",
      "lat": 19.076,
      "lng": 72.8777
    },
    "impacts": [
      {
        "city": "Mumbai",
        "country": "India",
        "lat": 19.076,
        "lng": 72.8777,
        "count": 10000
      }
    ],
    "reason": "Macroeconomic restructuring"
  },
  {
    "company": "Bayer",
    "industry": "Healthcare",
    "headcount": 1500,
    "date": "2026-03-05",
    "hq": {
      "city": "Leverkusen",
      "country": "Germany",
      "lat": 51.0459,
      "lng": 6.9829
    },
    "impacts": [
      {
        "city": "Leverkusen",
        "country": "Germany",
        "lat": 51.0459,
        "lng": 6.9829,
        "count": 1500
      }
    ],
    "reason": "Macroeconomic restructuring"
  },
  {
    "company": "Stellantis",
    "industry": "Manufacturing",
    "headcount": 3500,
    "date": "2026-02-10",
    "hq": {
      "city": "Amsterdam",
      "country": "Netherlands",
      "lat": 52.3676,
      "lng": 4.9041
    },
    "impacts": [
      {
        "city": "Amsterdam",
        "country": "Netherlands",
        "lat": 52.3676,
        "lng": 4.9041,
        "count": 3500
      }
    ],
    "reason": "Macroeconomic restructuring"
  },
  {
    "company": "Samsung",
    "industry": "Electronics",
    "headcount": 6000,
    "date": "2026-01-25",
    "hq": {
      "city": "Seoul",
      "country": "South Korea",
      "lat": 37.5665,
      "lng": 126.978
    },
    "impacts": [
      {
        "city": "Seoul",
        "country": "South Korea",
        "lat": 37.5665,
        "lng": 126.978,
        "count": 6000
      }
    ],
    "reason": "Macroeconomic restructuring"
  },
  {
    "company": "Macy's",
    "industry": "Retail",
    "headcount": 2300,
    "date": "2026-01-20",
    "hq": {
      "city": "New York",
      "country": "USA",
      "lat": 40.7128,
      "lng": -74.006
    },
    "impacts": [
      {
        "city": "New York",
        "country": "USA",
        "lat": 40.7128,
        "lng": -74.006,
        "count": 2300
      }
    ],
    "reason": "Macroeconomic restructuring"
  },
  {
    "company": "Intel",
    "industry": "Semiconductors",
    "headcount": 15000,
    "date": "2024-08-01",
    "hq": {
      "city": "Santa Clara",
      "country": "USA",
      "lat": 37.3541,
      "lng": -121.9552
    },
    "impacts": [
      {
        "city": "Santa Clara",
        "country": "USA",
        "lat": 37.3541,
        "lng": -121.9552,
        "count": 15000
      }
    ],
    "reason": "Macroeconomic restructuring"
  },
  {
    "company": "Tesla",
    "industry": "Automotive",
    "headcount": 14000,
    "date": "2024-04-15",
    "hq": {
      "city": "Austin",
      "country": "USA",
      "lat": 30.2672,
      "lng": -97.7431
    },
    "impacts": [
      {
        "city": "Austin",
        "country": "USA",
        "lat": 30.2672,
        "lng": -97.7431,
        "count": 14000
      }
    ],
    "reason": "Macroeconomic restructuring"
  },
  {
    "company": "Cisco",
    "industry": "Networking",
    "headcount": 4000,
    "date": "2024-02-14",
    "hq": {
      "city": "San Jose",
      "country": "USA",
      "lat": 37.3382,
      "lng": -121.8863
    },
    "impacts": [
      {
        "city": "San Jose",
        "country": "USA",
        "lat": 37.3382,
        "lng": -121.8863,
        "count": 4000
      }
    ],
    "reason": "Macroeconomic restructuring"
  },
  {
    "company": "PayPal",
    "industry": "Finance",
    "headcount": 2500,
    "date": "2024-01-30",
    "hq": {
      "city": "San Jose",
      "country": "USA",
      "lat": 37.3382,
      "lng": -121.8863
    },
    "impacts": [
      {
        "city": "San Jose",
        "country": "USA",
        "lat": 37.3382,
        "lng": -121.8863,
        "count": 2500
      }
    ],
    "reason": "Macroeconomic restructuring"
  },
  {
    "company": "Microsoft",
    "industry": "Technology",
    "headcount": 1900,
    "date": "2024-01-25",
    "hq": {
      "city": "Redmond",
      "country": "USA",
      "lat": 47.674,
      "lng": -122.1215
    },
    "impacts": [
      {
        "city": "Redmond",
        "country": "USA",
        "lat": 47.674,
        "lng": -122.1215,
        "count": 1900
      }
    ],
    "reason": "Macroeconomic restructuring"
  },
  {
    "company": "Google",
    "industry": "Technology",
    "headcount": 1000,
    "date": "2024-01-10",
    "hq": {
      "city": "Mountain View",
      "country": "USA",
      "lat": 37.3861,
      "lng": -122.0839
    },
    "impacts": [
      {
        "city": "Mountain View",
        "country": "USA",
        "lat": 37.3861,
        "lng": -122.0839,
        "count": 1000
      }
    ],
    "reason": "Macroeconomic restructuring"
  },
  {
    "company": "Twitch",
    "industry": "Consumer",
    "headcount": 500,
    "date": "2024-01-09",
    "hq": {
      "city": "San Francisco",
      "country": "USA",
      "lat": 37.7749,
      "lng": -122.4194
    },
    "impacts": [
      {
        "city": "San Francisco",
        "country": "USA",
        "lat": 37.7749,
        "lng": -122.4194,
        "count": 500
      }
    ],
    "reason": "Macroeconomic restructuring"
  },
  {
    "company": "Unity",
    "industry": "Gaming",
    "headcount": 1800,
    "date": "2024-01-08",
    "hq": {
      "city": "San Francisco",
      "country": "USA",
      "lat": 37.7749,
      "lng": -122.4194
    },
    "impacts": [
      {
        "city": "San Francisco",
        "country": "USA",
        "lat": 37.7749,
        "lng": -122.4194,
        "count": 1800
      }
    ],
    "reason": "Macroeconomic restructuring"
  },
  {
    "company": "Accenture",
    "industry": "Consulting",
    "headcount": 19000,
    "date": "2023-03-23",
    "hq": {
      "city": "Dublin",
      "country": "Ireland",
      "lat": 53.3498,
      "lng": -6.2603
    },
    "impacts": [
      {
        "city": "Dublin",
        "country": "Ireland",
        "lat": 53.3498,
        "lng": -6.2603,
        "count": 19000
      }
    ],
    "reason": "Macroeconomic restructuring"
  },
  {
    "company": "Amazon",
    "industry": "E-Commerce",
    "headcount": 9000,
    "date": "2023-03-20",
    "hq": {
      "city": "Seattle",
      "country": "USA",
      "lat": 47.6062,
      "lng": -122.3321
    },
    "impacts": [
      {
        "city": "Seattle",
        "country": "USA",
        "lat": 47.6062,
        "lng": -122.3321,
        "count": 9000
      }
    ],
    "reason": "Macroeconomic restructuring"
  },
  {
    "company": "Ericsson",
    "industry": "Telecom",
    "headcount": 8500,
    "date": "2023-02-24",
    "hq": {
      "city": "Stockholm",
      "country": "Sweden",
      "lat": 59.3293,
      "lng": 18.0686
    },
    "impacts": [
      {
        "city": "Stockholm",
        "country": "Sweden",
        "lat": 59.3293,
        "lng": 18.0686,
        "count": 8500
      }
    ],
    "reason": "Macroeconomic restructuring"
  },
  {
    "company": "Dell",
    "industry": "Technology",
    "headcount": 6650,
    "date": "2023-02-06",
    "hq": {
      "city": "Round Rock",
      "country": "USA",
      "lat": 30.5083,
      "lng": -97.6789
    },
    "impacts": [
      {
        "city": "Round Rock",
        "country": "USA",
        "lat": 30.5083,
        "lng": -97.6789,
        "count": 6650
      }
    ],
    "reason": "Macroeconomic restructuring"
  },
  {
    "company": "Philips",
    "industry": "Healthcare",
    "headcount": 6000,
    "date": "2023-01-30",
    "hq": {
      "city": "Amsterdam",
      "country": "Netherlands",
      "lat": 52.3676,
      "lng": 4.9041
    },
    "impacts": [
      {
        "city": "Amsterdam",
        "country": "Netherlands",
        "lat": 52.3676,
        "lng": 4.9041,
        "count": 6000
      }
    ],
    "reason": "Macroeconomic restructuring"
  },
  {
    "company": "SAP",
    "industry": "Enterprise Software",
    "headcount": 3000,
    "date": "2023-01-26",
    "hq": {
      "city": "Walldorf",
      "country": "Germany",
      "lat": 49.3,
      "lng": 8.6333
    },
    "impacts": [
      {
        "city": "Walldorf",
        "country": "Germany",
        "lat": 49.3,
        "lng": 8.6333,
        "count": 3000
      }
    ],
    "reason": "Macroeconomic restructuring"
  },
  {
    "company": "IBM",
    "industry": "Enterprise Software",
    "headcount": 3900,
    "date": "2023-01-25",
    "hq": {
      "city": "Armonk",
      "country": "USA",
      "lat": 41.1062,
      "lng": -73.7087
    },
    "impacts": [
      {
        "city": "Armonk",
        "country": "USA",
        "lat": 41.1062,
        "lng": -73.7087,
        "count": 3900
      }
    ],
    "reason": "Macroeconomic restructuring"
  },
  {
    "company": "Google",
    "industry": "Technology",
    "headcount": 12000,
    "date": "2023-01-20",
    "hq": {
      "city": "Mountain View",
      "country": "USA",
      "lat": 37.3861,
      "lng": -122.0839
    },
    "impacts": [
      {
        "city": "Mountain View",
        "country": "USA",
        "lat": 37.3861,
        "lng": -122.0839,
        "count": 12000
      }
    ],
    "reason": "Macroeconomic restructuring"
  },
  {
    "company": "Microsoft",
    "industry": "Technology",
    "headcount": 10000,
    "date": "2023-01-18",
    "hq": {
      "city": "Redmond",
      "country": "USA",
      "lat": 47.674,
      "lng": -122.1215
    },
    "impacts": [
      {
        "city": "Redmond",
        "country": "USA",
        "lat": 47.674,
        "lng": -122.1215,
        "count": 10000
      }
    ],
    "reason": "Macroeconomic restructuring"
  },
  {
    "company": "Amazon",
    "industry": "E-Commerce",
    "headcount": 18000,
    "date": "2023-01-04",
    "hq": {
      "city": "Seattle",
      "country": "USA",
      "lat": 47.6062,
      "lng": -122.3321
    },
    "impacts": [
      {
        "city": "Seattle",
        "country": "USA",
        "lat": 47.6062,
        "lng": -122.3321,
        "count": 18000
      }
    ],
    "reason": "Macroeconomic restructuring"
  },
  {
    "company": "Salesforce",
    "industry": "Enterprise Software",
    "headcount": 8000,
    "date": "2023-01-04",
    "hq": {
      "city": "San Francisco",
      "country": "USA",
      "lat": 37.7749,
      "lng": -122.4194
    },
    "impacts": [
      {
        "city": "San Francisco",
        "country": "USA",
        "lat": 37.7749,
        "lng": -122.4194,
        "count": 8000
      }
    ],
    "reason": "Macroeconomic restructuring"
  },
  {
    "company": "Meta",
    "industry": "Social Media",
    "headcount": 11000,
    "date": "2022-11-09",
    "hq": {
      "city": "Menlo Park",
      "country": "USA",
      "lat": 37.453,
      "lng": -122.1817
    },
    "impacts": [
      {
        "city": "Menlo Park",
        "country": "USA",
        "lat": 37.453,
        "lng": -122.1817,
        "count": 11000
      }
    ],
    "reason": "Macroeconomic restructuring"
  },
  {
    "company": "Twitter",
    "industry": "Social Media",
    "headcount": 3700,
    "date": "2022-11-04",
    "hq": {
      "city": "San Francisco",
      "country": "USA",
      "lat": 37.7749,
      "lng": -122.4194
    },
    "impacts": [
      {
        "city": "San Francisco",
        "country": "USA",
        "lat": 37.7749,
        "lng": -122.4194,
        "count": 3700
      }
    ],
    "reason": "Macroeconomic restructuring"
  },
  {
    "company": "Stripe",
    "industry": "Finance",
    "headcount": 1000,
    "date": "2022-11-03",
    "hq": {
      "city": "San Francisco",
      "country": "USA",
      "lat": 37.7749,
      "lng": -122.4194
    },
    "impacts": [
      {
        "city": "San Francisco",
        "country": "USA",
        "lat": 37.7749,
        "lng": -122.4194,
        "count": 1000
      }
    ],
    "reason": "Macroeconomic restructuring"
  },
  {
    "company": "Snap",
    "industry": "Social Media",
    "headcount": 1200,
    "date": "2022-08-31",
    "hq": {
      "city": "Santa Monica",
      "country": "USA",
      "lat": 34.0522,
      "lng": -118.2437
    },
    "impacts": [
      {
        "city": "Santa Monica",
        "country": "USA",
        "lat": 34.0522,
        "lng": -118.2437,
        "count": 1200
      }
    ],
    "reason": "Macroeconomic restructuring"
  },
  {
    "company": "Shopify",
    "industry": "E-Commerce",
    "headcount": 1000,
    "date": "2022-07-26",
    "hq": {
      "city": "Ottawa",
      "country": "Canada",
      "lat": 45.4215,
      "lng": -75.6972
    },
    "impacts": [
      {
        "city": "Ottawa",
        "country": "Canada",
        "lat": 45.4215,
        "lng": -75.6972,
        "count": 1000
      }
    ],
    "reason": "Macroeconomic restructuring"
  },
  {
    "company": "Coinbase",
    "industry": "Crypto",
    "headcount": 1100,
    "date": "2022-06-14",
    "hq": {
      "city": "San Francisco",
      "country": "USA",
      "lat": 37.7749,
      "lng": -122.4194
    },
    "impacts": [
      {
        "city": "San Francisco",
        "country": "USA",
        "lat": 37.7749,
        "lng": -122.4194,
        "count": 1100
      }
    ],
    "reason": "Macroeconomic restructuring"
  },
  {
    "company": "Better.com",
    "industry": "Real Estate",
    "headcount": 3000,
    "date": "2022-03-08",
    "hq": {
      "city": "New York",
      "country": "USA",
      "lat": 40.7128,
      "lng": -74.006
    },
    "impacts": [
      {
        "city": "New York",
        "country": "USA",
        "lat": 40.7128,
        "lng": -74.006,
        "count": 3000
      }
    ],
    "reason": "Macroeconomic restructuring"
  },
  {
    "company": "Peloton",
    "industry": "Fitness",
    "headcount": 2800,
    "date": "2022-02-08",
    "hq": {
      "city": "New York",
      "country": "USA",
      "lat": 40.7128,
      "lng": -74.006
    },
    "impacts": [
      {
        "city": "New York",
        "country": "USA",
        "lat": 40.7128,
        "lng": -74.006,
        "count": 2800
      }
    ],
    "reason": "Macroeconomic restructuring"
  }
]